stop_id,stop_code,stop_name,stop_desc,stop_lat,stop_lon,zone_id,stop_url,wheelchair_boarding
12901,12901,FOREST @ SHEPHERD - E - NS,,32.909084,-96.750428,,,1
12908,12908,WALNUT HILL @ RAMBLER - W - MB,,32.883393,-96.760888,,,1
12909,12909,WALNUT HILL @ GREENVILLE - E - MB,,32.883151,-96.760168,,,0
12916,12916,MATILDA @ PENROSE - S - NS,,32.832439,-96.767991,,,0
12917,12917,MATILDA @ MCCOMMAS - S - NS,,32.830131,-96.767975,,,0
12918,12918,MATILDA @ MONTICELLO - S - NS,,32.827129,-96.767991,,,0
12919,12919,MATILDA @ VANDERBILT - S - NS,,32.825092,-96.767998,,,0
12920,12920,MATILDA @ VICKERY - S - NS,,32.823062,-96.767998,,,0
12921,12921,MATILDA @ VELASCO - S - NS,,32.821076,-96.768052,,,0
12922,12922,MATILDA @ GOLIAD - S - NS,,32.818781,-96.768052,,,0
12923,12923,MATILDA @ RICHMOND - S - NS,,32.81628,-96.768063,,,1
12924,12924,MATILDA @ ORAM - S - NS,,32.813968,-96.768085,,,0
12925,12925,MATILDA @ LEWIS - S - NS,,32.812256,-96.7686,,,0
12926,12926,ROSS @ HOPE - W - NS,,32.811161,-96.769135,,,0
12936,12936,LIVE OAK @ WASHINGTON - W - NS,,32.79467,-96.782202,,,0
12937,12937,LIVE OAK @ HALL - W - NS,,32.792266,-96.785061,,,1
12938,12938,LIVE OAK @ LIBERTY - W - NS,,32.790187,-96.787513,,,1
12939,12939,LIVE OAK @ CANTEGRAL - W - NS,,32.788717,-96.789263,,,1
12940,12940,LIVE OAK @ CANTEGRAL - E - MB,,32.788347,-96.789583,,,1
12941,12941,LIVE OAK @ TEXAS - E - NS,,32.789222,-96.788531,,,0
12942,12942,LIVE OAK @ SKILES - E - MB,,32.791007,-96.786316,,,1
12944,12944,LIVE OAK @ HASKELL - E - NS,,32.796386,-96.779923,,,1
12954,12954,ROSS @ HOPE - E - FS,,32.811111,-96.769082,,,1
12955,12955,MATILDA @ LEWIS - N - FS,,32.812336,-96.768486,,,1
12956,12956,MATILDA @ ORAM - N - NS,,32.813758,-96.768006,,,1
12957,12957,MATILDA @ RICHMOND - N - NS,,32.815776,-96.767998,,,1
12958,12958,MATILDA @ GOLIAD - N - NS,,32.818512,-96.767955,,,1
12959,12959,MATILDA @ VELASCO - N - NS,,32.820789,-96.767944,,,1
12960,12960,MATILDA @ VICKERY - N - NS,,32.822864,-96.76796,,,0
12961,12961,MATILDA @ VANDERBILT - N - NS,,32.824769,-96.767912,,,1
12962,12962,MATILDA @ MONTICELLO - N - NS,,32.826902,-96.767901,,,0
12963,12963,MATILDA @ MCCOMMAS - N - NS,,32.829773,-96.767914,,,0
12964,12964,MATILDA @ PENROSE - N - NS,,32.832149,-96.767899,,,1
12965,12965,MATILDA @ ANITA - N - FS,,32.834816,-96.767879,,,1
12967,12967,GREENVILLE @ SOUTHWESTERN - N - MB1,,32.852885,-96.769372,,,1
12971,12971,WALNUT HILL @ RAMBLER - W - NS,,32.883402,-96.762193,,,1
12983,12983,GREENVILLE @ UNIVERSITY - N - NS,,32.845298,-96.769982,,,0
12985,12985,GREENVILLE @ UNIVERSITY - S - NS,,32.845829,-96.77018,,,1
12986,12986,GREENVILLE @ SOUTHWESTERN - N - NS,,32.85691,-96.768501,,,1
12999,12999,COLONIAL @ MARBURG - N - NS,,32.750034,-96.763878,,,0
13003,13003,COLONIAL @ COOPER - N - NS,,32.75748,-96.77166,,,0
13005,13005,COOPER @ HARWOOD - N - NS,,32.75896,-96.770119,,,0
13006,13006,HARWOOD @ WARREN - N - NS,,32.760625,-96.771759,,,0
13008,13008,COLONIAL @ PENNSYLVANIA - N - FS,,32.760609,-96.775023,,,1
13009,13009,COLONIAL @ MLK - N - NS,,32.761795,-96.776425,,,1
13010,13010,ERVAY @ SOUTH - N - NS,,32.762334,-96.777547,,,0
13011,13011,ERVAY @ AL LIPSCOMB WAY - N - NS,,32.764202,-96.780159,,,1
13012,13012,ERVAY @ SANGER - N - FS,,32.765266,-96.781243,,,1
13015,13015,ERVAY @ BEAUMONT - N - FS,,32.770381,-96.787667,,,0
13020,13020,ERVAY @ MARILLA - N - NS,,32.776847,-96.795754,,,1
13021,13021,ERVAY @ YOUNG - N - NS,,32.777801,-96.796135,,,1
13023,13023,ST PAUL @ CADIZ - S - NS,,32.776363,-96.793374,,,1
13024,13024,ST PAUL @ ST LOUIS - S - MB,,32.775379,-96.792199,,,1
13028,13028,ERVAY @ BEAUMONT - S - NS,,32.770229,-96.787598,,,0
13032,13032,ERVAY @ SANGER - S - NS,,32.765035,-96.78112,,,0
13033,13033,ERVAY @ AL LIPSCOMB WAY - S - FS,,32.763969,-96.780068,,,1
13035,13035,COLONIAL @ MLK - S - NS,,32.762065,-96.77697,,,1
13036,13036,COLONIAL @ PENNSYLVANIA - S - MB,,32.760925,-96.775544,,,1
13037,13037,PENNSYLVANIA @ HARWOOD - E - NS,,32.761684,-96.773331,,,0
13039,13039,HARWOOD @ COOPER - S - NS,,32.759254,-96.770256,,,0
13041,13041,COOPER @ COLONIAL - S - NS,,32.757724,-96.771744,,,0
13045,13045,COLONIAL @ MARBURG - S - NS,,32.750145,-96.764153,,,0
13056,13056,ABRAMS @ RICHMOND - S - MB,,32.816673,-96.75298,,,1
13060,13060,ABRAMS @ WORTH - S - NS,,32.809921,-96.752945,,,1
13062,13062,ABRAMS @ GASTON - N - FS,,32.81475,-96.752442,,,1
13064,13064,ABRAMS @ BEACON - S - NS,,32.801529,-96.75631,,,1
13065,13065,COLUMBIA @ ORIENT - S - NS,,32.799438,-96.758538,,,0
13066,13066,COLUMBIA @ MUNGER - S - NS,,32.797695,-96.760697,,,1
13068,13068,COLUMBIA @ FITZHUGH - S - NS,,32.795299,-96.763596,,,1
13069,13069,COLUMBIA @ PRAIRIE - S - NS,,32.794499,-96.764703,,,0
13070,13070,COLUMBIA @ COLSON - S - NS,,32.792941,-96.76648,,,1
13071,13071,COLUMBIA @ CARROLL - S - FS,,32.79164,-96.767742,,,1
13072,13072,MAIN @ PEAK - S - FS,,32.789485,-96.76973,,,1
13073,13073,MAIN @ HASKELL - S - NS,,32.788738,-96.770615,,,0
13075,13075,ELM @ HALL - W - NS,,32.785653,-96.778968,,,1
13076,13076,ELM @ MALCOLM X - W - NS,,32.784973,-96.782332,,,1
13077,13077,ELM @ GOOD-LATIMER - W - FS,,32.78402,-96.787007,,,0
13082,13082,MAIN @ HASKELL - N - NS,,32.788349,-96.77089,,,1
13083,13083,MAIN @ PEAK - N - NS,,32.789848,-96.76902,,,1
13084,13084,MAIN @ CARROLL - N - NS,,32.791404,-96.767525,,,1
13085,13085,COLUMBIA @ COLSON - N - NS,,32.792465,-96.766762,,,0
13086,13086,COLUMBIA @ PRAIRIE - N - NS,,32.794143,-96.764725,,,1
13087,13087,COLUMBIA @ FITZHUGH - N - NS,,32.794929,-96.763671,,,1
13089,13089,COLUMBIA @ MUNGER - N - NS,,32.796787,-96.761498,,,1
13090,13090,COLUMBIA @ ST MARY - N - NS,,32.79758,-96.760506,,,0
13091,13091,COLUMBIA @ ORIENT - N - NS,,32.799163,-96.758515,,,0
13093,13093,ABRAMS @ FULTON - N - NS,,32.801884,-96.755819,,,1
13094,13094,ABRAMS @ VICTOR - N - FS,,32.805174,-96.755432,,,0
13095,13095,ABRAMS @ GLASGOW - N - NS,,32.807415,-96.753861,,,1
13097,13097,ABRAMS @ WORTH - N - NS,,32.809833,-96.752747,,,1
13098,13098,ABRAMS @ LA VISTA - N - NS,,32.812564,-96.751587,,,1
13099,13099,ABRAMS @ RICHMOND - N - NS,,32.815975,-96.752861,,,1
13100,13100,ADAMS @ GRIFFITH - S - NS,,32.735206,-96.830796,,,0
13101,13101,LLEWELLYN @ BROOKLYN - N - FS,,32.739395,-96.832131,,,1
13102,13102,LLEWELLYN @ 12TH - N - NS,,32.741005,-96.832131,,,0
13103,13103,LLEWELLYN @ JEFFERSON - N - NS,,32.74295,-96.832055,,,1
13104,13104,LLEWELLYN @ 10TH - N - FS,,32.745406,-96.83209,,,0
13105,13105,LLEWELLYN @ DAVIS - N - NS,,32.749351,-96.831658,,,0
13118,13118,MARKET @ JACKSON - N - FS,,32.778015,-96.805642,,,1
13132,13132,LLEWELLYN @ 7TH - S - NS,,32.749027,-96.831925,,,1
13133,13133,LLEWELLYN @ MELBA - S - NS,,32.747333,-96.832146,,,0
13134,13134,LLEWELLYN @ JEFFERSON - S - NS,,32.743366,-96.832177,,,1
13135,13135,LLEWELLYN @ 12TH - S - NS,,32.74142,-96.832177,,,0
13136,13136,LLEWELLYN @ BROOKLYN - S - NS,,32.739334,-96.832161,,,0
13137,13137,ADAMS @ YARMOUTH - S - FS,,32.736538,-96.830811,,,0
13138,13138,VERNON @ ILLINOIS - S - FS,,32.720026,-96.836931,,,0
13139,13139,VERNON @ LUDLOW - N - NS,,32.723522,-96.836708,,,0
13140,13140,VERNON @ FERNDALE - N - NS,,32.725996,-96.836678,,,0
13141,13141,VERNON @ PIONEER - N - FS,,32.728198,-96.836747,,,0
13142,13142,VERNON @ MONSSEN - N - NS,,32.730297,-96.836731,,,0
13145,13145,TYLER @ CLARENDON - N - NS,,32.73513,-96.837494,,,0
13147,13147,TYLER @ PEMBROKE - N - NS,,32.738208,-96.837502,,,0
13148,13148,TYLER @ PAGE - N - NS,,32.740074,-96.837555,,,0
13149,13149,TYLER @ 12TH - N - NS,,32.740939,-96.837592,,,0
13150,13150,TYLER @ JEFFERSON - N - NS,,32.742961,-96.837525,,,1
13151,13151,TYLER @ 10TH - N - NS,,32.745027,-96.837509,,,1
13152,13152,TYLER @ 9TH - N - NS,,32.746246,-96.837489,,,1
13153,13153,TYLER @ 8TH - N - NS,,32.747896,-96.837544,,,1
13154,13154,TYLER @ DAVIS - N - NS,,32.749303,-96.837534,,,1
13155,13155,TYLER @ WINSTON - N - NS,,32.751178,-96.837403,,,0
13156,13156,TYLER @ CANTY - N - FS,,32.752882,-96.837319,,,1
13157,13157,TYLER @ STEWART - N - NS,,32.755034,-96.837346,,,0
13158,13158,TYLER @ SALMON - N - NS,,32.757032,-96.837393,,,0
13159,13159,SYLVAN @ RAINBOW - N - FS,,32.760141,-96.835514,,,0
13161,13161,SYLVAN @ EVERGREEN HILLS - N - NS,,32.764235,-96.835598,,,0
13162,13162,SYLVAN @ KESSLER - N - NS,,32.766436,-96.835497,,,0
13164,13164,COMMERCE @ LANGFORD - E - NS,,32.774247,-96.825239,,,1
13165,13165,COMMERCE @ LEW STERRETT CROSSWALK - W - NS,,32.776756,-96.814362,,,1
13166,13166,SYLVAN @ FT WORTH - S - FS,,32.769161,-96.835876,,,1
13168,13168,SYLVAN @ EVERGREEN HILLS - S - NS,,32.764077,-96.835829,,,0
13170,13170,SYLVAN @ RAINBOW - S - NS,,32.760384,-96.835729,,,0
13171,13171,TYLER @ COLORADO - S - FS,,32.758319,-96.836815,,,0
13172,13172,TYLER @ SALMON - S - NS,,32.757198,-96.837593,,,0
13173,13173,TYLER @ STEWART - S - NS,,32.755191,-96.837555,,,0
13174,13174,TYLER @ EVERTS - S - NS,,32.753346,-96.837591,,,0
13175,13175,POLK @ CANTY - S - FS,,32.75204,-96.837647,,,0
13176,13176,POLK @ DAVIS - S - NS,,32.749694,-96.839417,,,0
13177,13177,POLK @ 8TH - S - NS,,32.748256,-96.839463,,,0
13178,13178,POLK @ 9TH - S - MB,,32.746837,-96.839475,,,0
13179,13179,POLK @ 10TH - S - NS,,32.74525,-96.83947,,,0
13180,13180,POLK @ JEFFERSON - S - NS,,32.743362,-96.839478,,,1
13181,13181,POLK @ 12TH - S - NS,,32.741699,-96.839486,,,0
13182,13182,POLK CUTOFF @ PAGE - S - NS,,32.740379,-96.839013,,,0
13183,13183,TYLER @ PEMBROKE - S - NS,,32.738563,-96.837693,,,0
13184,13184,TYLER @ BURLINGTON - S - NS,,32.73698,-96.837685,,,1
13185,13185,TYLER @ CLARENDON - S - NS,,32.73545,-96.83767,,,0
13188,13188,VERNON @ ELMDALE - S - NS,,32.730644,-96.836953,,,0
13189,13189,VERNON @ PIONEER - S - NS,,32.72805,-96.836838,,,0
13190,13190,VERNON @ FERNDALE - S - NS,,32.726314,-96.836815,,,0
13191,13191,VERNON @ WILBUR - S - NS,,32.722591,-96.836853,,,0
13192,13192,PINELAND @ FAIR OAKS - E - MB,,32.876041,-96.755295,,,1
13193,13193,FAIR OAKS @ PHOENIX - S - NS,,32.874099,-96.756707,,,1
13195,13195,RIDGECREST @ HEMLOCK- E - MB,,32.870425,-96.75944,,,0
13196,13196,RIDGECREST @ EASTRIDGE - E - MB1,,32.869297,-96.758052,,,1
13199,13199,RIDGECREST @ EASTRIDGE - E - MB3,,32.867338,-96.75548,,,0
13201,13201,RIDGECREST @ EASTRIDGE - E - NS,,32.866114,-96.750639,,,1
13203,13203,MELODY @ HEMLOCK - W - MB1,,32.86399,-96.751311,,,0
13204,13204,MELODY @ HEMLOCK - W - MB2,,32.86423,-96.752564,,,0
13205,13205,MELODY @ HEMLOCK - W - MB3,,32.864443,-96.753645,,,0
13206,13206,MELODY @ HEMLOCK - W - MB4,,32.864784,-96.755441,,,0
13207,13207,MELODY @ HEMLOCK - W - MB5,,32.865383,-96.757103,,,0
13208,13208,MELODY @ HEMLOCK - W - MB6,,32.866203,-96.758203,,,0
13209,13209,MELODY @ HEMLOCK - W - NS,,32.868587,-96.761062,,,0
13210,13210,MELODY @ SHADYBROOK - W - MB,,32.869647,-96.762299,,,1
13216,13216,SOUTHWESTERN @ CARUTH HAVEN - S - NS,,32.860603,-96.764855,,,1
13224,13224,MELODY @ HEMLOCK - E - NS,,32.86848,-96.761073,,,0
13225,13225,MELODY @ EASTRIDGE - E - MB1,,32.867157,-96.759583,,,0
13226,13226,MELODY @ EASTRIDGE - E - MB2,,32.866386,-96.758568,,,1
13227,13227,MELODY @ EASTRIDGE - E - MB3,,32.865558,-96.757485,,,0
13228,13228,MELODY @ EASTRIDGE - E - MB4,,32.864715,-96.755524,,,0
13229,13229,MELODY @ EASTRIDGE - E - MB5,,32.864437,-96.75409,,,0
13230,13230,MELODY @ EASTRIDGE - E - MB6,,32.864181,-96.752724,,,0
13231,13231,MELODY @ EASTRIDGE - E - MB7,,32.863964,-96.751603,,,0
13232,13232,EASTRIDGE @ MELODY - N - FS,,32.864318,-96.749665,,,1
13233,13233,RIDGECREST @ EASTRIDGE - W - FS,,32.866228,-96.750598,,,1
13234,13234,RIDGECREST @ HEMLOCK - W - MB3,,32.867351,-96.755402,,,0
13238,13238,RIDGECREST @ HEMLOCK - W - NS,,32.869884,-96.758638,,,0
13239,13239,RIDGECREST @ PARK - W - NS,,32.870995,-96.759896,,,0
13240,13240,FAIR OAKS @ PHOENIX - N - NS,,32.873798,-96.756913,,,1
13242,13242,ELSIE FAYE HEGGINS@ LELAND - W - NS,,32.751911,-96.758427,,,1
13255,13255,MLK @ EDGEWOOD - N - NS,,32.764885,-96.773217,,,0
13256,13256,MLK @ HARWOOD - S - NS,,32.763595,-96.774964,,,1
13312,13312,OAK LAWN @ LEMMON - S - FS,,32.811588,-96.806165,,,1
13318,13318,MAPLE @ HOOD - S - NS,,32.802716,-96.812747,,,1
13319,13319,MAPLE @ TURTLE CREEK - S - FS,,32.800891,-96.810729,,,1
13324,13324,ERVAY @ ELM - N - MB,,32.781626,-96.797277,,,1
13328,13328,MAPLE @ HOOD - N - FS,,32.802959,-96.812874,,,1
13331,13331,OAK LAWN @ HALL - N - NS,,32.809965,-96.807829,,,0
13332,13332,OAK LAWN @ LEMMON - N - NS,,32.811731,-96.805693,,,0
13347,13347,NORTHWEST @ AMES - E - NS,,32.865467,-96.807618,,,1
13365,13365,MALCOLM X @ MLK - N - NS,,32.76897,-96.768258,,,1
13367,13367,MLK @ MEADOW - N - NS,,32.77209,-96.764939,,,1
13369,13369,ROBERT B CULLUM @ GRAND - N - FS,,32.777889,-96.765404,,,1
13371,13371,PEAK @ MAIN - W - NS,,32.789905,-96.768816,,,0
13372,13372,PEAK @ ELM - W - FS,,32.791244,-96.770395,,,1
13373,13373,PEAK @ VICTOR - W - NS,,32.792131,-96.771419,,,0
13375,13375,PEAK @ GASTON - W - NS,,32.795204,-96.775055,,,1
13377,13377,PEAK @ LIVE OAK - W - NS,,32.79778,-96.777999,,,1
13380,13380,PEAK @ MUNGER - W - NS,,32.802681,-96.783783,,,0
13385,13385,BLACKBURN @ TURTLE CREEK - W - MB,,32.811151,-96.798506,,,1
13386,13386,OAK LAWN @ HOLLAND - S - MB,,32.813899,-96.803391,,,1
13389,13389,MAPLE @ HONDO - N - FS,,32.810401,-96.821282,,,0
13390,13390,MAPLE @ LUCAS - S - NS,,32.811599,-96.822815,,,1
13391,13391,MEDICAL DISTRICT @ MAPLE - S - FS,,32.814742,-96.829445,,,0
13393,13393,MEDICAL DISTRICT @ HARRY HINES - S - MB,,32.810804,-96.834023,,,0
13394,13394,MEDICAL DISTRICT @ HARRY HINES - N - FS,,32.81044,-96.834089,,,0
13396,13396,MEDICAL DISTRICT @ MAPLE - N - MB,,32.814827,-96.829293,,,1
13397,13397,MAPLE @ KINGS - S - NS,,32.813816,-96.825493,,,1
13398,13398,MAPLE @ LUCAS - N - NS,,32.811416,-96.822503,,,1
13399,13399,MAPLE @ OAK LAWN - N - NS,,32.803974,-96.814034,,,1
13402,13402,OAK LAWN @ HOLLAND - N - NS,,32.813327,-96.803749,,,0
13403,13403,BLACKBURN @ OAK LAWN - E - FS,,32.814231,-96.802094,,,1
13404,13404,BLACKBURN @ TRAVIS - E - MB,,32.811241,-96.798752,,,0
13405,13405,BLACKBURN @ MCKINNEY - E - FS,,32.808453,-96.795626,,,1
13407,13407,HASKELL @ LAFAYETTE - E - FS,,32.802156,-96.786458,,,0
13408,13408,HASKELL @ ROSS - E - NS,,32.800079,-96.784028,,,1
13411,13411,HASKELL @ LIVE OAK - E - NS,,32.796615,-96.780007,,,1
13413,13413,HASKELL @ GASTON - E - NS,,32.794052,-96.777054,,,1
13414,13414,HASKELL @ JUNIUS - E - NS,,32.793067,-96.775971,,,1
13416,13416,HASKELL @ CRUTCHER - E - NS,,32.791248,-96.773865,,,1
13418,13418,HASKELL @ ELM - E - NS,,32.789444,-96.771798,,,1
13420,13420,HASKELL @ ASH - E - FS,,32.785276,-96.76684,,,1
13421,13421,HASKELL @ PARRY - E - NS,,32.784076,-96.765419,,,1
13432,13432,HAMPTON @ WADDY - N - NS,,32.744594,-96.856697,,,0
13433,13433,HAMPTON @ MARVIN - N - NS,,32.746078,-96.856705,,,0
13436,13436,JEFFERSON @ EDGEFIELD - E - NS,,32.744217,-96.844284,,,1
13438,13438,JEFFERSON @ TYLER - E - NS,,32.743064,-96.837905,,,1
13440,13440,JEFFERSON @ VAN BUREN - E - FS,,32.743048,-96.833644,,,1
13441,13441,JEFFERSON @ LLEWELLYN - E - NS,,32.743049,-96.832281,,,1
13442,13442,JEFFERSON @ BISHOP - E - NS,,32.742988,-96.828524,,,1
13444,13444,JEFFERSON @ ZANG - E - NS,,32.743017,-96.824843,,,1
13445,13445,JEFFERSON @ BECKLEY - E - NS,,32.74335,-96.823082,,,1
13447,13447,JEFFERSON @ CRAWFORD - E - NS,,32.745287,-96.819249,,,1
13449,13449,JEFFERSON @ MARSALIS - E - NS,,32.747031,-96.815894,,,1
13450,13450,JEFFERSON @ 10TH - E - NS,,32.748199,-96.813775,,,1
13453,13453,HOUSTON @ COMMERCE - S - NS,,32.778413,-96.807783,,,1
13454,13454,MARSALIS @ COLORADO - S - NS,,32.759006,-96.815712,,,1
13455,13455,COLORADO @ LANCASTER - E - NS,,32.75868,-96.814428,,,0
13461,13461,JEFFERSON @ 10TH - W - NS,,32.748375,-96.813797,,,0
13463,13463,JEFFERSON @ HAMPTON - W - NS,,32.747718,-96.856469,,,1
13464,13464,HAMPTON @ WENTWORTH - S - NS,,32.74324,-96.856919,,,0
13478,13478,HAMPTON @ BENTLEY - N - NS,,32.728225,-96.856896,,,0
13479,13479,HAMPTON @ BRANDON - N - NS,,32.731899,-96.856888,,,0
13493,13493,HAMPTON @ SEARCY - S - NS,,32.727504,-96.857125,,,0
13494,13494,HAMPTON @ ENGLE - S - MB,,32.719358,-96.857134,,,1
13501,13501,HAMPTON @ ILLINOIS - S - NS,,32.72055,-96.857135,,,1
13502,13502,ILLINOIS @ CHALMERS - W - NS,,32.720485,-96.862282,,,0
13519,13519,ELSIE FAYE HEGGINS@ VERDUN - E - NS,,32.760986,-96.746758,,,1
13520,13520,2ND @ KENILWORTH - N - NS,,32.762573,-96.746247,,,1
13523,13523,2ND @ PINE - N - NS,,32.765746,-96.749978,,,0
13525,13525,2ND @ HERRLING - N - NS,,32.767818,-96.75235,,,0
13526,13526,2ND @ JAMAICA - N - NS,,32.768882,-96.753579,,,1
13527,13527,2ND @ PENELOPE - N - NS,,32.769642,-96.754527,,,1
13528,13528,2ND @ CARL - N - NS,,32.771198,-96.756287,,,0
13529,13529,2ND @ HAMILTON - S - NS,,32.770916,-96.756119,,,0
13530,13530,2ND @ METROPOLITAN - S - NS,,32.770217,-96.75528,,,0
13531,13531,2ND @ FRANK - S - NS,,32.768501,-96.753289,,,0
13536,13536,MOCKINGBIRD @ ALDERSON - W - NS,,32.836601,-96.754982,,,1
13537,13537,MOCKINGBIRD @ NORRIS - W - NS,,32.836593,-96.75808,,,0
13538,13538,MOCKINGBIRD @ DELMAR - W - NS,,32.836635,-96.765282,,,0
13540,13540,MOCKINGBIRD @ MCMILLAN - W - NS,,32.836696,-96.773583,,,1
13542,13542,COLE @ KNOX - S - NS,,32.823387,-96.788948,,,0
13543,13543,COLE @ OLIVER - S - NS,,32.820034,-96.790627,,,0
13544,13544,COLE @ LEE - S - NS,,32.818538,-96.791428,,,1
13545,13545,COLE @ FITZHUGH - S - NS,,32.816835,-96.792374,,,0
13547,13547,LEMMON @ WESTSIDE - S - MB,,32.823191,-96.818923,,,1
13548,13548,LEMMON @ VERSAILLES S - N - NS,,32.827495,-96.823517,,,0
13550,13550,MOCKINGBIRD @ HAWES - W - MB,,32.822278,-96.854022,,,1
13554,13554,MCKINNEY @ LEE - N - NS,,32.817634,-96.790169,,,0
13555,13555,MCKINNEY @ KNOX - N - MB,,32.822007,-96.78782,,,1
13558,13558,MOCKINGBIRD @ DELMAR - E - NS,,32.836429,-96.76587,,,0
13559,13559,MOCKINGBIRD @ SKILLMAN - E - NS,,32.83643,-96.76202,,,1
13560,13560,MOCKINGBIRD @ NORRIS - E - FS,,32.836384,-96.757897,,,1
13561,13561,MOCKINGBIRD @ ALDERSON - E - NS,,32.836384,-96.755372,,,1
13562,13562,MOCKINGBIRD @ ABRAMS - E - NS,,32.836377,-96.753178,,,1
13569,13569,SPRING @ SWANSON - E - NS,,32.771839,-96.745514,,,0
13573,13573,SPRING @ WAHOO - E - FS,,32.774435,-96.741953,,,1
13574,13574,SPRING @ LYONS - E - NS,,32.775077,-96.741013,,,0
13577,13577,ELSIE FAYE HEGGINS @ DUCKETT - S - FS,,32.775402,-96.738323,,,1
13578,13578,ELSIE FAYE HEGGINS @ LYONS - S - NS,,32.772856,-96.738131,,,1
13579,13579,ELSIE FAYE HEGGINS @ JUNCTION - W - NS,,32.768993,-96.738927,,,1
13580,13580,ELSIE FAYE HEGGINS @ LAGOW - W - NS,,32.767406,-96.740693,,,0
13581,13581,LAGOW @ MONTIE - W - FS,,32.768486,-96.742188,,,0
13586,13586,LAGOW @ JAMAICA - W - NS,,32.773654,-96.748551,,,0
13587,13587,LAGOW @ METROPOLITAN - W - NS,,32.774723,-96.749772,,,0
13589,13589,LAGOW @ FITZHUGH - W - MB,,32.776249,-96.751587,,,0
13591,13591,FITZHUGH @ CROSS - W - NS,,32.774152,-96.755226,,,0
13595,13595,EXPOSITION @ COMMERCE - W - NS,,32.785087,-96.77414,,,1
13599,13599,COMMERCE @ MALCOLM X - E - NS,,32.783386,-96.78209,,,1
13601,13601,COMMERCE @ HALL - E - NS,,32.784034,-96.778778,,,1
13604,13604,COMMERCE @ EXPOSITION - E - NS,,32.784752,-96.774247,,,0
13605,13605,ROBERT B CULLUM @ GRAND - S - NS,,32.777468,-96.765542,,,1
13606,13606,FITZHUGH @ 2ND - E - NS,,32.771842,-96.757378,,,0
13607,13607,FITZHUGH @ CROSS - E - NS,,32.773799,-96.755242,,,0
13609,13609,FITZHUGH @ LAGOW - E - NS,,32.776508,-96.752228,,,0
13611,13611,LAGOW @ METROPOLITAN - E - NS,,32.774841,-96.750084,,,0
13612,13612,LAGOW @ JAMAICA - E - NS,,32.773712,-96.748772,,,0
13614,13614,LAZY RIVER @ CONCERTO - W - NS,,32.66876,-96.804903,,,0
13615,13615,CONCERTO @ SINGING HILLS - N - NS,,32.672785,-96.805162,,,0
13629,13629,RAMONA @ EXETER - N - NS,,32.694302,-96.803155,,,1
13631,13631,RAMONA @ GRINNELL - N - NS,,32.696945,-96.803597,,,1
13632,13632,RAMONA @ HUDSPETH - N - NS,,32.699331,-96.804798,,,1
13633,13633,RAMONA @ OVERTON - N - NS,,32.701088,-96.805871,,,1
13652,13652,EWING @ WACO - N - NS,,32.735304,-96.811391,,,1
13654,13654,EWING @ MORRELL - N - NS,,32.738834,-96.811791,,,0
13658,13658,MARSALIS @ 12TH - S - NS,,32.745046,-96.815668,,,0
13659,13659,ZOO STATION,,32.740771,-96.812896,,,1
13660,13660,EWING @ MORRELL - S - NS,,32.739208,-96.812058,,,0
13662,13662,EWING @ WACO - S - FS,,32.735313,-96.811507,,,0
13663,13663,EWING @ WINTERS - S - NS,,32.733303,-96.811478,,,0
13681,13681,RAMONA @ HUDSPETH - S - NS,,32.699565,-96.805039,,,1
13682,13682,RAMONA @ GRINNELL - S - NS,,32.697124,-96.803666,,,1
13684,13684,RAMONA @ EXETER - S - NS,,32.694519,-96.803399,,,1
13685,13685,RAMONA @ ANN ARBOR - S - NS,,32.693466,-96.802658,,,1
13692,13692,LEDBETTER @ YEWPON - W - NS,,32.683548,-96.800354,,,1
13693,13693,LEDBETTER @ SINGING HILLS - W - NS,,32.682899,-96.802811,,,1
13701,13701,CONCERTO @ LAZY RIVER - S - MB,,32.671207,-96.805247,,,0
13702,13702,CONCERTO @ LAZY RIVER - S - NS,,32.66884,-96.805107,,,0
13703,13703,LAZY RIVER @ QUARTET - E - NS,,32.668133,-96.803102,,,0
13712,13712,HAMPTON @ BONNYWOOD - N - NS,,32.701728,-96.856949,,,0
13713,13713,HAMPTON @ PERRYTON - N - NS,,32.714065,-96.856949,,,1
13714,13714,HAMPTON @ GLENFIELD - N - NS,,32.716659,-96.856972,,,1
13715,13715,HAMPTON @ WENTWORTH - N - NS,,32.742916,-96.856697,,,0
13718,13718,FT WORTH @ YORKTOWN - E - NS,,32.770791,-96.834664,,,1
13719,13719,COMMERCE @ PITTMAN - E - NS,,32.773097,-96.830757,,,0
13722,13722,HAMPTON @ JEFFERSON - S - NS,,32.748165,-96.856949,,,1
13723,13723,HAMPTON @ GLENFIELD - S - NS,,32.716915,-96.857132,,,0
13724,13724,HAMPTON @ CLIFF TEEN CT - S - NS,,32.711648,-96.857169,,,0
13725,13725,HAMPTON @ SOUTHWOOD - S - NS,,32.700093,-96.857156,,,0
13730,13730,ST PAUL @ BRYAN - S - NS,,32.783884,-96.797777,,,1
13733,13733,YOUNG @ GRIFFIN - W - NS,,32.776874,-96.80188,,,1
13734,13734,WOOD @ MARKET - W - FS,,32.776998,-96.805581,,,1
13735,13735,YOUNG @ LAMAR - E - NS,,32.776493,-96.803795,,,1
13737,13737,FIELD @ ELM - N - NS,,32.780864,-96.80111,,,1
13738,13738,FIELD @ PATTERSON - N - NS,,32.782623,-96.801705,,,1
13739,13739,ERVAY @ FEDERAL - N - NS,,32.783492,-96.798438,,,1
13741,13741,ELM @ MARKET - W - NS,,32.780018,-96.806119,,,1
13745,13745,OLIVE @ ROSS - N - FS,,32.788043,-96.798713,,,1
13746,13746,SAMUELL @ FERGUSON - W - NS,,32.793337,-96.723528,,,0
13747,13747,SAMUELL @ BOONE - W - MB,,32.793003,-96.731995,,,0
13750,13750,DOLPHIN @ CULVER - S - NS,,32.790479,-96.737433,,,1
13762,13762,PARRY @ FLETCHER - N - NS,,32.784451,-96.76451,,,1
13763,13763,HASKELL @ PEAK - E - NS,,32.783763,-96.763009,,,1
13770,13770,SAMUELL @ WINFIELD - E - NS,,32.792936,-96.735473,,,0
13771,13771,SAMUELL @ BOONE - E - NS,,32.792899,-96.733679,,,0
13772,13772,SAMUELL @ LAWNVIEW - E - FS,,32.79302,-96.725503,,,0
13773,13773,SAMUELL @ FERGUSON - E - FS,,32.793146,-96.723381,,,1
13775,13775,JOHN WEST @ PEAVY - W - NS,,32.807194,-96.685387,,,1
13776,13776,DILIDO @ JOHN WEST - S - FS,,32.806114,-96.688958,,,0
13777,13777,DILIDO @ CHENAULT - S - NS,,32.802945,-96.688272,,,0
13778,13778,DILIDO @ SENATE - S - NS,,32.800452,-96.688251,,,0
13779,13779,SENATE @ ST FRANCIS - W - MB,,32.800186,-96.689904,,,1
13780,13780,SENATE @ ST FRANCIS - W - NS,,32.799457,-96.692589,,,1
13791,13791,HIGHLAND @ FALL RIVER - W - NS,,32.796623,-96.707924,,,1
13792,13792,HUNNICUT @ HIGHLAND - S - FS,,32.79676,-96.709397,,,0
13793,13793,HUNNICUT @ CLAREMONT - S - NS,,32.795669,-96.710717,,,0
13795,13795,SAMUELL @ GROVE HILL - W - NS,,32.793576,-96.716911,,,0
13796,13796,SAMUELL @ TREW - E - MB,,32.793313,-96.716009,,,0
13797,13797,HUNNICUT @ CLAREMONT - N - NS,,32.795372,-96.711014,,,1
13798,13798,HUNNICUT @ HIGHLAND - N - NS,,32.797191,-96.708786,,,0
13809,13809,SENATE @ ST FRANCIS - E - FS,,32.799366,-96.692368,,,1
13810,13810,SENATE @ DILIDO - E - MB,,32.799903,-96.690247,,,0
13811,13811,DILIDO @ CHENAULT - N - NS,,32.802585,-96.688165,,,1
13812,13812,DILIDO @ JOHN WEST - N - NS,,32.806697,-96.688866,,,1
13817,13817,CHARIOT @ TRACE - W - NS,,32.783651,-96.690531,,,0
13818,13818,TRACE @ ST FRANCIS - N - NS,,32.784114,-96.690361,,,1
13819,13819,ST FRANCIS @ BERRIDGE - N - NS,,32.785674,-96.690964,,,1
13825,13825,EVERGLADE @ URBAN CREST - W - NS,,32.785514,-96.700737,,,1
13826,13826,EVERGLADE @ HAZELHURST - W - NS,,32.786029,-96.705353,,,1
13827,13827,EVERGLADE @ ASHBROOK - W - NS,,32.786895,-96.706841,,,0
13828,13828,EVERGLADE @ ELKRIDGE - W - NS,,32.787197,-96.707688,,,0
13829,13829,EVERGLADE @ MENEFEE - W - NS,,32.786586,-96.71019,,,0
13830,13830,EVERGLADE @ HUNNICUT - W - NS,,32.786502,-96.712494,,,0
13832,13832,SAMUELL @ GROVE HILL - W - MB,,32.793354,-96.71545,,,1
13833,13833,SAMUELL @ GROVE HILL - E - NS,,32.793461,-96.717301,,,1
13838,13838,EVERGLADE @ MENEFEE - E - FS,,32.786518,-96.710274,,,1
13839,13839,EVERGLADE @ ELKRIDGE - E - NS,,32.787056,-96.708054,,,1
13840,13840,EVERGLADE @ ASHBROOK - E - NS,,32.786945,-96.70707,,,0
13841,13841,EVERGLADE @ HAZELHURST - E - NS,,32.786068,-96.705635,,,0
13842,13842,EVERGLADE @ URBAN CREST - E - NS,,32.785426,-96.700977,,,0
13848,13848,ST FRANCIS @ BERRIDGE - S - NS,,32.785827,-96.691117,,,1
13849,13849,ST FRANCIS @ TRACE - S - NS,,32.784727,-96.690598,,,1
13851,13851,ST FRANCIS @ BUCKNER - E - NS,,32.784748,-96.684665,,,1
13852,13852,BUCKNER @ CHARIOT - S - FS,,32.782127,-96.682984,,,1
13854,13854,GASTON @ GLASGOW - S - NS,,32.810327,-96.757144,,,1
13855,13855,GASTON @ SKILLMAN - S - FS,,32.808639,-96.759152,,,1
13856,13856,GASTON @ GLENDALE - S - NS,,32.807618,-96.760384,,,0
13857,13857,GASTON @ BEACON - S - FS,,32.806018,-96.762322,,,1
13858,13858,GASTON @ DUMAS - S - NS,,32.804283,-96.764405,,,1
13859,13859,GASTON @ MUNGER - S - FS,,32.802784,-96.766221,,,1
13860,13860,GASTON @ COLLETT - S - FS,,32.801372,-96.767914,,,1
13861,13861,GASTON @ FITZHUGH - S - FS,,32.79985,-96.769722,,,1
13862,13862,GASTON @ ANNEX - S - NS,,32.798248,-96.771668,,,0
13863,13863,GASTON @ CARROLL - S - NS,,32.796848,-96.773354,,,1
13864,13864,GASTON @ PEAK - S - NS,,32.79553,-96.775002,,,1
13865,13865,GASTON @ HASKELL - S - MB,,32.794483,-96.77623,,,1
13867,13867,GASTON @ ST JOSEPH - S - NS,,32.792564,-96.778542,,,1
13868,13868,GASTON @ WASHINGTON - S - FS,,32.791675,-96.779572,,,1
13869,13869,GASTON @ HALL - S - MB,,32.790571,-96.780928,,,1
13870,13870,GASTON @ HALL - S - FS,,32.789208,-96.782618,,,1
13872,13872,GASTON @ LIBERTY - S - NS,,32.787467,-96.78479,,,0
13877,13877,GASTON @ LIBERTY - N - NS,,32.787239,-96.785042,,,0
13879,13879,GASTON @ HALL - N - NS,,32.789348,-96.782212,,,1
13880,13880,GASTON @ WASHINGTON - N - MB1,,32.790466,-96.780861,,,1
13881,13881,GASTON @ WASHINGTON - N - MB,,32.791765,-96.779341,,,0
13882,13882,GASTON @ HILL - N - NS,,32.79285,-96.778016,,,1
13883,13883,GASTON @ HASKELL - N - FS,,32.794059,-96.776581,,,1
13884,13884,GASTON @ PEAK - N - NS,,32.795166,-96.775246,,,1
13885,13885,GASTON @ CARROLL - N - FS,,32.796848,-96.773247,,,1
13886,13886,GASTON @ ANNEX - N - NS,,32.798173,-96.771645,,,0
13887,13887,GASTON @ FITZHUGH - N - FS,,32.800294,-96.769061,,,1
13888,13888,GASTON @ COLLETT - N - FS,,32.801801,-96.767245,,,1
13889,13889,GASTON @ MUNGER - N - FS,,32.803173,-96.765564,,,1
13890,13890,GASTON @ BEACON - N - FS,,32.806297,-96.761841,,,1
13891,13891,GASTON @ GLENDALE - N - NS,,32.807418,-96.760483,,,0
13892,13892,GASTON @ SKILLMAN - N - NS,,32.808811,-96.758797,,,1
13893,13893,GASTON @ GLASGOW - N - NS,,32.810142,-96.757126,,,0
13894,13894,ABRAMS @ ELLSWORTH - S - NS,,32.833896,-96.752984,,,0
13895,13895,ABRAMS @ BOB-O-LINK - S - FS,,32.831809,-96.752945,,,1
13897,13897,ABRAMS @ MCCOMMAS - S - NS,,32.829383,-96.752938,,,0
13899,13899,ABRAMS @ MONTICELLO - S - NS,,32.826703,-96.752935,,,0
13904,13904,ABRAMS @ VELASCO - S - NS,,32.821125,-96.752892,,,0
13907,13907,ABRAMS @ GOLIAD - S - NS,,32.818241,-96.752915,,,0
13909,13909,GASTON @ ABRAMS - N - NS,,32.813518,-96.753121,,,0
13911,13911,ABRAMS @ GOLIAD - N - NS,,32.818046,-96.752877,,,0
13914,13914,ABRAMS @ VELASCO - N - NS,,32.820919,-96.752839,,,0
13918,13918,ABRAMS @ VANDERBILT - N - NS,,32.824779,-96.752854,,,0
13920,13920,ABRAMS @ SONDRA - N - NS,,32.826492,-96.752877,,,0
13922,13922,ABRAMS @ MCCOMMAS - N - NS,,32.82915,-96.752816,,,0
13924,13924,ABRAMS @ BOB-O-LINK - N - NS,,32.831669,-96.752826,,,0
13925,13925,ABRAMS @ ELLSWORTH - N - NS,,32.833587,-96.752907,,,0
14057,14057,COLE @ HESTER - S - NS,,32.825176,-96.78772,,,0
14058,14058,COLE @ ARMSTRONG - S - NS,,32.821693,-96.789765,,,0
14059,14059,COLE @ ELIZABETH - S - NS,,32.814773,-96.793447,,,1
14060,14060,COLE @ CAMBRICK - S - NS,,32.812594,-96.794575,,,0
14061,14061,COLE @ HASKELL - S - NS,,32.81082,-96.795498,,,0
14062,14062,COLE @ BLACKBURN - S - NS,,32.809863,-96.796532,,,0
14063,14063,LEMMON E @ COLE - W - FS,,32.8083,-96.799172,,,1
14071,14071,PEARL @ MCKINNEY - N - NS,,32.792945,-96.802605,,,1
14072,14072,MCKINNEY @ ROUTH - N - NS,,32.796146,-96.801781,,,1
14073,14073,MCKINNEY @ WORTHINGTON - N - NS,,32.798278,-96.801165,,,0
14074,14074,MCKINNEY @ BLACKBURN - N - NS,,32.808632,-96.795895,,,0
14076,14076,MCKINNEY @ CAMBRICK - N - NS,,32.811733,-96.793297,,,1
14077,14077,MCKINNEY @ ELIZABETH - N - NS,,32.813858,-96.792199,,,0
14078,14078,MCKINNEY @ FITZHUGH - N - NS,,32.815768,-96.791127,,,0
14079,14079,MCKINNEY @ OLIVER - N - NS,,32.819237,-96.78928,,,0
14080,14080,MCKINNEY @ ARMSTRONG - N - NS,,32.820907,-96.78843,,,0
14081,14081,MCKINNEY @ HESTER - N - FS,,32.82475,-96.786381,,,0
14108,14108,BECKLEY @ HOLDEN - N - NS,,32.702846,-96.82293,,,0
14110,14110,BECKLEY @ CORNING - N - NS,,32.707363,-96.822953,,,0
14111,14111,BECKLEY @ MCVEY - N - NS,,32.709239,-96.8229,,,0
14112,14112,BECKLEY @ BROWNLEE - N - NS,,32.711235,-96.822937,,,0
14113,14113,BECKLEY @ SANER - N - NS,,32.712902,-96.822907,,,1
14114,14114,BECKLEY @ HOBSON - N - NS,,32.714881,-96.822907,,,0
14115,14115,BECKLEY @ ELMORE - N - NS,,32.716825,-96.822898,,,0
14116,14116,BECKLEY @ OHIO - N - MB,,32.71883,-96.822873,,,0
14124,14124,BECKLEY @ 9TH - N - NS,,32.7462,-96.822784,,,1
14126,14126,BECKLEY @ DAVIS - N - NS,,32.749122,-96.822818,,,1
14128,14128,BECKLEY @ CANTY - N - NS,,32.752161,-96.822842,,,0
14130,14130,BECKLEY @ ZANG - N - NS,,32.756023,-96.822884,,,0
14132,14132,BECKLEY @ COLORADO - N - NS,,32.758667,-96.822847,,,1
14133,14133,BECKLEY @ OAKENWALD - N - NS,,32.760408,-96.822846,,,1
14135,14135,BECKLEY @ GREENBRIAR - N - NS,,32.763782,-96.822792,,,1
14138,14138,BECKLEY @ COMMERCE - S - FS,,32.773406,-96.822898,,,0
14140,14140,BECKLEY @ COMSTOCK - S - MB,,32.770403,-96.822907,,,0
14142,14142,BECKLEY @ METHODIST MEDICAL CENTER - S - FS,,32.761152,-96.823009,,,1
14143,14143,BECKLEY @ COLORADO - S - NS,,32.759162,-96.823014,,,1
14144,14144,BECKLEY @ MADISON - S - FS,,32.757979,-96.823028,,,0
14146,14146,BECKLEY @ CANTY - S - NS,,32.752233,-96.822896,,,0
14148,14148,BECKLEY @ DAVIS - S - NS,,32.749642,-96.822926,,,0
14151,14151,BECKLEY @ 10TH - S - NS,,32.745187,-96.822891,,,1
14152,14152,BECKLEY @ JEFFERSON - S - FS,,32.743068,-96.822915,,,1
14160,14160,BECKLEY @ GUTHRIE - S - NS,,32.718658,-96.822915,,,0
14161,14161,BECKLEY @ ELMORE - S - NS,,32.716903,-96.82293,,,1
14162,14162,BECKLEY @ HOBSON - S - FS,,32.714893,-96.822945,,,0
14163,14163,BECKLEY @ SANER - S - NS,,32.713321,-96.822968,,,1
14164,14164,BECKLEY @ BROWNLEE - S - NS,,32.711471,-96.822998,,,0
14165,14165,BECKLEY @ MCVEY - S - NS,,32.709716,-96.823006,,,0
14166,14166,BECKLEY @ CORNING - S - NS,,32.707649,-96.823021,,,1
14168,14168,BECKLEY @ HOLDEN - S - NS,,32.703322,-96.823004,,,1
14203,14203,ROSS @ HALL - S - NS,,32.795522,-96.78907,,,1
14204,14204,ROSS @ PAVILLION - S - FS,,32.794406,-96.790383,,,1
14206,14206,ROSS @ ARTS PLAZA - S - MB,,32.79188,-96.793452,,,1
14207,14207,ROSS @ LEONARD - S - NS,,32.789581,-96.796212,,,1
14209,14209,SAN JACINTO @ FIELD - E - NS,,32.783453,-96.802141,,,1
14210,14210,SAN JACINTO @ HARWOOD - E - NS,,32.785942,-96.7985,,,1
14211,14211,SAN JACINTO @ LEONARD - N - NS,,32.788471,-96.795411,,,1
14212,14212,ROSS @ PAVILLION - N - NS,,32.794346,-96.7903,,,0
14213,14213,ROSS @ HALL - N - NS,,32.795276,-96.789154,,,1
14227,14227,HENDERSON @ MISSION - E - FS,,32.817499,-96.781631,,,0
14228,14228,HENDERSON @ MANETT - E - NS,,32.816675,-96.780696,,,0
14229,14229,HENDERSON @ BELMONT - E - NS,,32.815868,-96.779732,,,1
14230,14230,CAPITOL @ HENDERSON - S - FS,,32.81472,-96.778717,,,1
14231,14231,CAPITOL @ MOSER - S - NS,,32.814111,-96.779278,,,1
14233,14233,CAPITOL @ BENNETT - S - NS,,32.812345,-96.781007,,,1
14234,14234,CAPITOL @ FITZHUGH - S - FS,,32.811042,-96.782433,,,1
14236,14236,CAPITOL @ KIRBY - S - NS,,32.809749,-96.784005,,,1
14237,14237,CAPITOL @ CARROLL - S - NS,,32.808017,-96.786227,,,1
14238,14238,CAPITOL @ PEAK - S - NS,,32.806563,-96.788045,,,1
14239,14239,CAPITOL @ HASKELL - S - MB,,32.8054,-96.789447,,,0
14242,14242,PEAK @ ROSS - W - FS,,32.80149,-96.782372,,,1
14243,14243,LEMMON @ PEAK - W - FS,,32.804514,-96.786721,,,1
14245,14245,CAPITOL @ PEAK - N - MB,,32.806492,-96.787956,,,1
14246,14246,CAPITOL @ CARROLL - N - NS,,32.807729,-96.786388,,,0
14247,14247,CAPITOL @ KIRBY - N - NS,,32.809647,-96.784036,,,1
14249,14249,CAPITOL @ FITZHUGH - N - NS,,32.811126,-96.782178,,,1
14250,14250,CAPITOL @ BENNETT - N - NS,,32.811996,-96.781222,,,1
14251,14251,CAPITOL @ GARRETT - N - NS,,32.812964,-96.780288,,,0
14252,14252,CAPITOL @ MOSER - N - NS,,32.813815,-96.779439,,,0
14253,14253,CAPITOL @ HENDERSON - N - NS,,32.814708,-96.778611,,,0
14254,14254,HENDERSON @ BELMONT - W - NS,,32.81568,-96.779407,,,0
14255,14255,HENDERSON @ MANETT - W - NS,,32.816397,-96.780245,,,0
14256,14256,HENDERSON @ HOMER - W - NS,,32.818186,-96.782286,,,0
14279,14279,GASTON @ LA VISTA - N - NS,,32.812606,-96.754265,,,0
14289,14289,HARRY HINES @ HOUSTON - S - FS,,32.798023,-96.814311,,,0
14300,14300,HARRY HINES @ HAWES - S - NS,,32.82397,-96.852508,,,0
14308,14308,AMESBURY @ LOVERS - S - FS,,32.850555,-96.764473,,,1
14312,14312,AMESBURY @ SOUTHWESTERN - S - FS,,32.857009,-96.765801,,,0
14313,14313,AMESBURY @ OLD TOWN - S - FS,,32.85387,-96.764618,,,1
14314,14314,AMESBURY @ LOVERS - S - MB,,32.852382,-96.764504,,,1
14315,14315,AMESBURY @ MILTON - S - NS,,32.849407,-96.764489,,,0
14316,14316,AMESBURY @ BIRCHBROOK - S - NS,,32.84785,-96.764443,,,0
14317,14317,AMESBURY @ UNIVERSITY - S - NS,,32.846607,-96.764008,,,0
14318,14318,ROSS @ ROUTH - S - FS,,32.790544,-96.794987,,,1
14319,14319,ROSS @ AKARD - S - NS,,32.785724,-96.800843,,,1
14323,14323,NORTHWEST @ SHILOH - W - FS,,32.864208,-96.666565,,,1
14324,14324,NORTHWEST @ MCCREE - W - NS,,32.864193,-96.674096,,,0
14325,14325,NORTHWEST @ EXECUTIVE - W - NS,,32.864215,-96.678505,,,0
14326,14326,NORTHWEST @ JUPITER - W - NS,,32.864246,-96.682793,,,1
14327,14327,NORTHWEST @ ROLLING ROCK - W - NS,,32.864296,-96.692742,,,0
14328,14328,NORTHWEST @ MEDITERRANEAN - W - NS,,32.864292,-96.696984,,,0
14329,14329,NORTHWEST @ PLANO - W - NS,,32.864362,-96.700803,,,1
14330,14330,NORTHWEST @ LULLWATER - W - FS,,32.864296,-96.704186,,,0
14332,14332,NORTHWEST @ FERNDALE - W - NS,,32.864341,-96.710381,,,1
14333,14333,NORTHWEST @ CLASSEN - W - NS,,32.862892,-96.715882,,,0
14334,14334,NORTHWEST @ AUDELIA - W - FS,,32.861641,-96.718484,,,0
14335,14335,NORTHWEST @ GOFORTH - W - NS,,32.858997,-96.724153,,,1
14337,14337,NORTHWEST @ WALLING - W - NS,,32.854344,-96.73655,,,0
14338,14338,NORTHWEST @ ABRAMS - W - NS,,32.856784,-96.749115,,,1
14341,14341,NORTHWEST @ EDGEMERE - W - NS,,32.865615,-96.795113,,,0
14342,14342,NORTHWEST @ PICKWICK - W - NS,,32.865663,-96.800448,,,1
14343,14343,NORTHWEST @ HOLLOW WAY - W - NS,,32.865615,-96.813805,,,1
14344,14344,NORTHWEST @ INWOOD - W - MB,,32.865781,-96.820356,,,0
14345,14345,NORTHWEST @ MIDWAY - W - FS,,32.864088,-96.836909,,,1
14346,14346,NORTHWEST @ FRENCHMANS CREEK - W - NS,,32.863906,-96.842675,,,0
14347,14347,NORTHWEST @ MONTELEON - W - NS,,32.863715,-96.845723,,,0

